{
"type": "FeatureCollection",
"name": "distritos_ponto",
"crs": { "type": "name", "properties": { "name": "urn:ogc:def:crs:OGC:1.3:CRS84" } },
"features": [
{ "type": "Feature", "properties": { "Name": "Belém", "description": null, "timestamp": null, "begin": null, "end": null, "altitudeMode": null, "tessellate": -1, "extrude": 0, "visibility": -1, "drawOrder": null, "icon": null, "snippet": "" }, "geometry": { "type": "Point", "coordinates": [ -39.149984616224899, -5.29058775791237, 0.0 ] } },
{ "type": "Feature", "properties": { "Name": "Damião Carneiro", "description": null, "timestamp": null, "begin": null, "end": null, "altitudeMode": null, "tessellate": -1, "extrude": 0, "visibility": -1, "drawOrder": null, "icon": null, "snippet": "" }, "geometry": { "type": "Point", "coordinates": [ -39.279229472712501, -4.97686361577485, 0.0 ] } },
{ "type": "Feature", "properties": { "Name": "Encantado", "description": null, "timestamp": null, "begin": null, "end": null, "altitudeMode": null, "tessellate": -1, "extrude": 0, "visibility": -1, "drawOrder": null, "icon": null, "snippet": "" }, "geometry": { "type": "Point", "coordinates": [ -39.308542847750701, -5.50313468154483, 0.0 ] } },
{ "type": "Feature", "properties": { "Name": "Lacerda", "description": null, "timestamp": null, "begin": null, "end": null, "altitudeMode": null, "tessellate": -1, "extrude": 0, "visibility": -1, "drawOrder": null, "icon": null, "snippet": "" }, "geometry": { "type": "Point", "coordinates": [ -39.355203103621001, -5.43272135049654, 0.0 ] } },
{ "type": "Feature", "properties": { "Name": "Manituba", "description": null, "timestamp": null, "begin": null, "end": null, "altitudeMode": null, "tessellate": -1, "extrude": 0, "visibility": -1, "drawOrder": null, "icon": null, "snippet": "" }, "geometry": { "type": "Point", "coordinates": [ -39.574583329951302, -5.23213650865972, 0.0 ] } },
{ "type": "Feature", "properties": { "Name": "Nenelândia", "description": null, "timestamp": null, "begin": null, "end": null, "altitudeMode": null, "tessellate": -1, "extrude": 0, "visibility": -1, "drawOrder": null, "icon": null, "snippet": "" }, "geometry": { "type": "Point", "coordinates": [ -39.196868387170902, -5.44624206626028, 0.0 ] } },
{ "type": "Feature", "properties": { "Name": "Passagem", "description": null, "timestamp": null, "begin": null, "end": null, "altitudeMode": null, "tessellate": -1, "extrude": 0, "visibility": -1, "drawOrder": null, "icon": null, "snippet": "" }, "geometry": { "type": "Point", "coordinates": [ -39.504901804095702, -5.11677325369094, 0.0 ] } },
{ "type": "Feature", "properties": { "Name": "São Miguel", "description": null, "timestamp": null, "begin": null, "end": null, "altitudeMode": null, "tessellate": -1, "extrude": 0, "visibility": -1, "drawOrder": null, "icon": null, "snippet": "" }, "geometry": { "type": "Point", "coordinates": [ -39.521063584719101, -5.34202438420071, 0.0 ] } },
{ "type": "Feature", "properties": { "Name": "Uruquê", "description": null, "timestamp": null, "begin": null, "end": null, "altitudeMode": null, "tessellate": -1, "extrude": 0, "visibility": -1, "drawOrder": null, "icon": null, "snippet": "" }, "geometry": { "type": "Point", "coordinates": [ -39.178051741178699, -5.15028941488602, 0.0 ] } }
]
}
